City_ID,City,Lat,Lng,Max Temp,Humidity,Cloudiness,Wind Speed,Country,Date
0,shimoda,34.6667,138.95,277.65,77,77,4.59,JP,1675442252
1,zhashkiv,49.2454,30.1102,271.4,86,100,3.52,UA,1675442253
2,severo-kurilsk,50.6789,156.125,270.42,74,100,5.04,RU,1675442253
3,tikapur,28.5,81.1333,286.99,56,0,1.08,NP,1675442254
4,bengkulu,-3.8004,102.2655,297.76,88,88,2.75,ID,1675442254
5,cherskiy,68.75,161.3,244.64,100,100,0.9,RU,1675442121
6,albany,42.6001,-73.9662,261.51,49,61,1.79,US,1675442020
7,ushuaia,-54.8,-68.3,290.96,55,75,6.69,AR,1675442079
8,torbay,47.6666,-52.7314,273.86,95,100,13.89,CA,1675442140
9,meulaboh,4.1363,96.1285,298.46,84,100,1.03,ID,1675442256
10,jamestown,42.097,-79.2353,259.92,94,100,4.47,US,1675442082
11,kahului,20.8947,-156.47,295.28,92,20,2.57,US,1675442028
12,sambava,-14.2667,50.1667,299.27,87,10,3.51,MG,1675442256
13,elat,29.5581,34.9482,292.06,27,0,2.06,IL,1675442257
14,hermanus,-34.4187,19.2345,298.04,59,0,8.42,ZA,1675442257
15,vaini,-21.2,-175.2,298.24,94,75,7.2,TO,1675442257
16,georgetown,5.4112,100.3354,299.11,92,20,1.54,MY,1675442173
17,zhanakorgan,43.9098,67.2495,273.48,79,17,2.33,KZ,1675442257
18,avarua,-21.2078,-159.775,299.18,89,40,3.6,CK,1675442258
19,neiafu,-18.65,-173.9833,299.53,83,40,3.09,TO,1675442258
20,necochea,-38.5473,-58.7368,296.66,48,5,6.36,AR,1675442258
21,makakilo city,21.3469,-158.0858,294.33,84,100,2.06,US,1675442259
22,butaritari,3.0707,172.7902,300.53,77,30,8.56,KI,1675442260
23,haines junction,60.7522,-137.5108,252.12,77,99,0.51,CA,1675442261
24,busselton,-33.65,115.3333,294.55,53,48,7.51,AU,1675442261
25,ribeira grande,38.5167,-28.7,290.37,82,75,7.6,PT,1675442071
26,arraial do cabo,-22.9661,-42.0278,308.13,62,20,5.14,BR,1675442089
27,tuktoyaktuk,69.4541,-133.0374,232.15,66,0,1.54,CA,1675442262
28,mar del plata,-38.0023,-57.5575,297.01,62,40,8.23,AR,1675442046
29,isla vista,34.4133,-119.861,291.1,49,0,1.54,US,1675442263
30,riyadh,24.6877,46.7219,288.23,43,0,3.65,SA,1675442047
31,bluff,-46.6,168.3333,289.01,97,87,1.86,NZ,1675442119
32,dikson,73.5069,80.5464,257.48,95,100,0.69,RU,1675442264
33,clyde river,70.4692,-68.5914,243.28,63,75,8.75,CA,1675442264
34,purpe,64.4803,76.6897,258.68,95,77,4.24,RU,1675442264
35,punta arenas,-53.15,-70.9167,293.21,49,20,16.98,CL,1675442094
36,hilo,19.7297,-155.09,296.64,84,20,3.09,US,1675442265
37,la asuncion,11.0333,-63.8628,299.49,69,0,7.22,VE,1675442265
38,ust-omchug,61.15,149.6333,238.27,100,95,0.92,RU,1675442266
39,odweyne,9.4092,45.064,293.1,64,5,4.94,SO,1675442266
40,pevek,69.7008,170.3133,242.7,99,23,0.36,RU,1675442266
41,tautira,-17.7333,-149.15,300.5,78,78,8.47,PF,1675442267
42,sinnamary,5.3833,-52.95,299.16,84,85,5.97,GF,1675442267
43,nikolskoye,59.7035,30.7861,269.14,96,100,2.47,RU,1675442267
44,victoria,22.2855,114.1577,292.25,84,81,5.36,HK,1675442051
45,souillac,-20.5167,57.5167,299.36,89,40,3.09,MU,1675442268
46,aklavik,68.2191,-135.0107,236.15,74,75,1.54,CA,1675442268
47,salalah,17.0151,54.0924,297.2,64,0,1.54,OM,1675442269
48,vestmannaeyjar,63.4427,-20.2734,281.7,100,100,11.32,IS,1675442269
49,kapaa,22.0752,-159.319,296.33,93,100,5.66,US,1675442269
50,rikitea,-23.1203,-134.9692,298.72,71,66,4.76,PF,1675442269
51,zyryanskoye,56.8306,86.6258,259.92,97,100,0.61,RU,1675442270
52,wanning,18.8003,110.3967,295.12,94,99,2.79,CN,1675442270
53,east london,-33.0153,27.9116,297.67,73,20,3.6,ZA,1675442270
54,bambous virieux,-20.3428,57.7575,299.94,89,40,3.09,MU,1675442271
55,caravelas,-17.7125,-39.2481,303.52,54,11,5.41,BR,1675442271
56,marsh harbour,26.5412,-77.0636,298.48,71,0,7.11,BS,1675442151
57,airai,-8.9266,125.4092,288.52,96,100,1.48,TL,1675442252
58,kastamonu,41.5,33.6667,270.76,90,100,1.43,TR,1675442272
59,maridi,4.9158,29.4742,301.54,20,14,2.56,SS,1675442272
60,olafsvik,64.8945,-23.7142,279.83,83,100,21.63,IS,1675442273
61,bredasdorp,-34.5322,20.0403,294.18,60,0,6.47,ZA,1675442273
62,yellowknife,62.456,-114.3525,245.44,76,75,2.06,CA,1675442273
63,luangwa,-15.6167,30.4167,298.34,77,71,0.11,ZM,1675442273
64,qaanaaq,77.484,-69.3632,254.53,62,93,3.43,GL,1675442274
65,lebu,-37.6167,-73.65,293.96,62,0,9.43,CL,1675442274
66,saint-philippe,-21.3585,55.7679,298.92,87,91,6.58,RE,1675442274
67,ugoofaaru,5.6667,73.0,300.09,71,100,4.14,MV,1675442275
68,suntar,62.1444,117.6319,247.33,99,100,1.26,RU,1675442275
69,zaozerne,45.1582,33.2787,277.74,76,25,5.3,UA,1675442276
70,college,64.8569,-147.8028,259.12,85,100,0.0,US,1675442276
71,cine,37.6117,28.0614,278.82,89,94,0.48,TR,1675442276
72,hobart,-42.8794,147.3294,288.07,73,100,6.69,AU,1675442277
73,mata grande,-9.1175,-37.7322,306.5,30,92,3.73,BR,1675442277
74,port alfred,-33.5906,26.891,296.03,90,87,0.45,ZA,1675442106
75,mount gambier,-37.8333,140.7667,286.72,82,88,4.26,AU,1675442166
76,navirai,-23.065,-54.1906,295.38,93,100,3.09,BR,1675442277
77,karasuk,53.7377,78.0403,252.51,100,40,1.96,RU,1675442278
78,mataura,-46.1927,168.8643,288.63,99,80,1.69,NZ,1675442278
79,issoire,45.55,3.25,280.74,83,6,1.82,FR,1675442278
80,san patricio,28.017,-97.5169,283.1,62,0,4.76,US,1675442198
81,faanui,-16.4833,-151.75,300.56,76,11,6.95,PF,1675442279
82,bandarbeyla,9.4942,50.8122,297.28,67,3,8.24,SO,1675442279
83,pochutla,15.7432,-96.4661,303.61,46,6,3.68,MX,1675442279
84,cordoba,-31.4135,-64.1811,301.72,54,40,5.14,AR,1675442187
85,shelburne,44.0787,-80.2041,252.4,72,24,7.83,CA,1675442280
86,peniche,39.3558,-9.3811,289.02,60,0,3.97,PT,1675442280
87,grand-santi,4.25,-54.3833,298.85,92,93,1.96,GF,1675442281
88,naze,28.3667,129.4833,285.66,66,100,3.45,JP,1675442281
89,domat,46.8348,9.4508,278.78,61,75,1.03,CH,1675442281
90,codrington,-38.2667,141.9667,287.84,83,95,8.17,AU,1675442173
91,finschhafen,-6.6024,147.8681,299.29,86,100,2.44,PG,1675442282
92,astoria,46.1879,-123.8313,283.07,53,100,4.63,US,1675442282
93,pathardi,19.1667,75.1833,295.51,22,67,1.98,IN,1675442283
94,hobyo,5.3505,48.5268,298.16,69,24,7.85,SO,1675442283
95,tateyama,34.9833,139.8667,279.32,82,96,4.6,JP,1675442284
96,laguna,38.421,-121.4238,283.8,86,100,5.14,US,1675442284
97,erenhot,43.6475,111.9767,263.37,50,0,3.97,CN,1675442285
98,lasa,46.6166,10.7002,280.64,74,69,4.32,IT,1675442285
99,vostok,46.4856,135.8833,250.47,99,100,2.07,RU,1675442285
100,quelimane,-17.8786,36.8883,303.12,66,20,5.14,MZ,1675442286
101,auch,43.65,0.5833,282.84,91,1,0.89,FR,1675442233
102,south venice,27.0531,-82.4243,299.29,91,0,5.66,US,1675442286
103,nhulunbuy,-12.2333,136.7667,299.49,94,40,2.57,AU,1675442287
104,kloulklubed,7.0419,134.2556,299.43,70,100,6.92,PW,1675442287
105,grafton,42.207,-71.6856,265.88,27,0,14.4,US,1675442251
106,yeppoon,-23.1333,150.7333,300.03,74,98,2.17,AU,1675442288
107,cabo san lucas,22.8909,-109.9124,293.49,51,0,1.54,MX,1675442117
108,asfi,32.2994,-9.2372,287.98,48,0,2.25,MA,1675442289
109,castro,-24.7911,-50.0119,292.6,94,100,3.3,BR,1675442289
110,flinders,-34.5833,150.8552,291.03,56,14,2.24,AU,1675442289
111,hasaki,35.7333,140.8333,277.16,57,98,6.35,JP,1675442290
112,ostrovnoy,68.0531,39.5131,260.98,93,99,3.64,RU,1675442290
113,cape town,-33.9258,18.4232,295.98,63,0,9.26,ZA,1675442192
114,barrow,71.2906,-156.7887,247.16,76,0,9.26,US,1675442291
115,hithadhoo,-0.6,73.0833,300.84,70,51,7.27,MV,1675442291
116,shunyi,40.125,116.6453,264.12,62,0,3.0,CN,1675442292
117,erdenet,49.0333,104.0833,252.56,98,13,1.67,MN,1675442292
118,dubai,25.2582,55.3047,297.11,64,0,2.06,AE,1675442213
119,daitari,21.1,85.75,289.09,21,53,0.98,IN,1675442293
120,trincomalee,8.5711,81.2335,299.33,83,15,3.38,LK,1675442293
121,la romana,18.4273,-68.9728,301.35,65,40,3.6,DO,1675442293
122,carnarvon,-24.8667,113.6333,300.3,68,36,1.53,AU,1675442144
123,thompson,55.7435,-97.8558,243.24,69,100,1.03,CA,1675442294
124,fortuna,40.5982,-124.1573,282.96,88,100,7.72,US,1675442294
125,san juan del sur,11.2529,-85.8705,301.27,74,20,6.17,NI,1675442294
126,steinbach,50.1667,8.5667,282.37,87,100,5.66,DE,1675442295
127,saskylakh,71.9167,114.0833,235.51,100,90,1.61,RU,1675442295
128,noumea,-22.2763,166.4572,297.14,86,89,3.53,NC,1675442222
129,new norfolk,-42.7826,147.0587,287.87,77,100,0.89,AU,1675442295
130,mae hong son,19.3003,97.9685,295.49,56,23,0.67,TH,1675442296
131,lipin bor,60.2622,37.9763,269.05,97,100,2.35,RU,1675442296
132,gat,31.61,34.7642,286.53,100,52,1.21,IL,1675442297
133,provideniya,64.3833,-173.3,252.35,89,54,5.04,RU,1675442297
134,oistins,13.0667,-59.5333,302.2,58,40,8.75,BB,1675442297
135,kodiak,57.79,-152.4072,273.88,86,75,2.57,US,1675442110
136,kaitangata,-46.2817,169.8464,288.57,97,94,0.9,NZ,1675442150
137,bubaque,11.2833,-15.8333,299.11,71,7,5.46,GW,1675442298
138,maroantsetra,-15.4333,49.7333,299.04,86,12,3.78,MG,1675442298
139,eston,51.1501,-108.7514,261.99,88,21,2.5,CA,1675442299
140,gizo,-8.103,156.8419,300.67,80,95,3.44,SB,1675442299
141,nishihara,26.1842,127.7558,289.75,68,100,4.12,JP,1675442085
142,cockburn town,21.4612,-71.1419,298.39,74,74,8.27,TC,1675442299
143,wladyslawowo,54.7909,18.4009,273.45,96,100,11.38,PL,1675442213
144,nacala,-14.5428,40.6728,298.92,81,76,1.98,MZ,1675442300
145,saint-augustin,51.226,-58.6502,271.23,97,100,10.47,CA,1675442300
146,port-gentil,-0.7193,8.7815,303.13,74,40,4.63,GA,1675442300
147,kavieng,-2.5744,150.7967,301.15,74,91,3.93,PG,1675442137
148,salina,38.8403,-97.6114,266.22,53,0,4.63,US,1675442301
149,inhambane,-23.865,35.3833,302.14,65,40,5.14,MZ,1675442302
150,saint-francois,46.4154,3.9054,280.84,61,100,2.06,FR,1675442302
151,san jose,37.3394,-121.895,283.33,85,100,5.66,US,1675442089
152,biltine,14.5333,20.9167,301.14,11,66,4.35,TD,1675442303
153,rio grande,-32.035,-52.0986,301.21,74,46,4.4,BR,1675442303
154,sept-iles,50.2001,-66.3821,252.62,75,40,10.8,CA,1675442303
155,saldanha,-33.0117,17.9442,298.18,79,7,10.98,ZA,1675442304
156,the valley,18.217,-63.0578,301.07,69,20,7.72,AI,1675442304
157,geraldton,-28.7667,114.6,302.38,42,28,3.6,AU,1675442304
158,chokurdakh,70.6333,147.9167,243.0,98,95,1.32,RU,1675442305
159,acari,-15.4311,-74.6158,302.24,61,84,5.37,PE,1675442305
160,bethel,41.3712,-73.414,268.16,38,20,6.17,US,1675442145
161,atuona,-9.8,-139.0333,298.96,79,16,8.67,PF,1675442072
162,teguldet,57.3064,88.1667,262.03,98,100,0.51,RU,1675442306
163,jacareacanga,-6.2222,-57.7528,304.37,57,80,1.41,BR,1675442307
164,ranong,9.9658,98.6348,297.18,92,81,2.16,TH,1675442307
165,jalu,29.0331,21.5482,287.95,38,90,2.78,LY,1675442307
166,nioro,13.35,-15.75,310.56,7,65,2.96,GM,1675442308
167,komsomolskiy,40.4272,71.7189,278.55,87,100,2.06,UZ,1675442308
168,logrono,42.4667,-2.45,287.87,31,0,5.14,ES,1675442308
169,podgornoye,51.735,39.1496,273.27,93,100,2.0,RU,1675442309
170,okhotsk,59.3833,143.3,247.84,86,24,4.93,RU,1675442309
171,puerto ayora,-0.7393,-90.3518,302.13,85,20,2.68,EC,1675442310
172,bourail,-21.5667,165.4833,298.63,89,76,1.92,NC,1675442310
173,ca mau,9.1769,105.15,298.07,80,78,3.92,VN,1675442311
174,dallas,32.7668,-96.7836,278.92,81,0,3.13,US,1675442310
175,camana,-16.6228,-72.7111,298.67,73,96,3.64,PE,1675442311
176,leningradskiy,69.3833,178.4167,239.58,100,100,1.17,RU,1675442154
177,luanda,-8.8368,13.2343,304.15,66,20,6.17,AO,1675442013
178,ushtobe,45.2514,77.9838,273.33,95,100,1.9,KZ,1675442312
179,majene,-3.5403,118.9707,298.09,81,100,1.71,ID,1675442312
180,upernavik,72.7868,-56.1549,248.7,99,100,3.52,GL,1675442312
181,keflavik,64.0049,-22.5624,281.39,93,100,19.55,IS,1675442312
182,lahat,-3.8,103.5333,296.05,86,97,1.25,ID,1675442313
183,taoudenni,22.6783,-3.9836,292.02,18,100,7.05,ML,1675442313
184,tasiilaq,65.6145,-37.6368,270.24,82,100,10.93,GL,1675442314
185,tunceli,39.1083,39.5471,265.06,88,13,3.03,TR,1675442314
186,banda aceh,5.5577,95.3222,298.29,85,87,3.36,ID,1675442315
187,yumen,40.2833,97.2,267.34,46,2,4.33,CN,1675442315
188,ponta delgada,37.7333,-25.6667,290.55,82,20,5.14,PT,1675442128
189,esperance,-33.8667,121.9,289.22,79,71,5.03,AU,1675442315
190,fare,-16.7,-151.0167,300.63,76,4,6.98,PF,1675442316
191,doha,25.2867,51.5333,292.14,59,0,7.72,QA,1675442019
192,benguela,-12.5763,13.4055,299.99,70,100,3.63,AO,1675442316
193,adrar,20.5022,-10.0711,295.14,6,90,6.51,MR,1675442316
194,port elizabeth,-33.918,25.5701,296.66,79,100,4.92,ZA,1675442095
195,glendive,47.1053,-104.7125,262.94,85,0,2.57,US,1675442316
196,port hardy,50.6996,-127.4199,280.25,81,100,8.75,CA,1675442317
197,talnakh,69.4865,88.3972,261.3,96,100,2.7,RU,1675442152
198,takoradi,4.8845,-1.7554,302.08,70,16,4.95,GH,1675442317
199,praia,14.9215,-23.5087,297.45,50,20,9.77,CV,1675442317
200,sao gabriel da cachoeira,-0.1303,-67.0892,301.04,78,75,1.54,BR,1675442318
201,coquimbo,-29.9533,-71.3436,292.0,77,100,4.12,CL,1675442134
202,pastavy,55.1168,26.8326,268.05,93,100,0.33,BY,1675442318
203,ilulissat,69.2167,-51.1,261.16,61,75,2.06,GL,1675442318
204,awbari,26.5921,12.7805,289.47,30,100,7.06,LY,1675442319
205,noyabrsk,63.1994,75.4507,260.3,98,94,3.96,RU,1675442319
206,norman wells,65.282,-126.8329,238.17,68,75,0.0,CA,1675442319
207,santa barbara,34.7333,-120.0343,287.21,81,0,0.0,US,1675442319
208,parfenyevo,58.484,43.4088,267.87,97,100,2.68,RU,1675442320
209,lengshuijiang,27.6881,111.4294,278.94,89,99,0.93,CN,1675442320
210,oda,35.1833,132.5,277.04,77,38,2.56,JP,1675442320
211,chongwe,-15.3292,28.682,293.84,92,57,1.55,ZM,1675442321
212,dembi dolo,8.5333,34.8,295.14,27,84,2.61,ET,1675442321
213,kieta,-6.2167,155.6333,299.31,84,91,1.86,PG,1675442303
214,vila franca do campo,37.7167,-25.4333,290.38,83,82,5.13,PT,1675442321
215,velika kladusa,45.1894,15.8117,277.45,87,100,2.37,BA,1675442322
216,baykit,61.67,96.37,250.68,100,97,1.39,RU,1675442322
217,stephenville,32.2207,-98.2023,277.13,87,0,3.09,US,1675442322
218,la rioja,42.25,-2.5,284.03,56,0,1.42,ES,1675442323
219,longyearbyen,78.2186,15.6401,261.06,56,75,2.06,SJ,1675442323
220,orcopampa,-15.2661,-72.3417,286.79,60,97,3.24,PE,1675442323
221,harper,4.375,-7.7169,301.89,71,31,3.0,LR,1675442324
222,baturaja,-4.1333,104.1667,296.63,96,96,1.03,ID,1675442324
223,namatanai,-3.6667,152.4333,299.9,79,100,2.09,PG,1675442325
224,cidreira,-30.1811,-50.2056,301.03,66,100,3.53,BR,1675442188
225,cairns,-16.9167,145.7667,299.85,94,100,0.51,AU,1675442325
226,ishinomaki,38.4167,141.3,272.02,72,73,2.83,JP,1675442325
227,verkhnyaya inta,65.9811,60.3094,264.96,89,99,5.64,RU,1675442326
228,mehamn,71.0357,27.8492,270.12,68,75,5.14,NO,1675442326
229,bilma,18.6853,12.9164,298.45,11,97,3.79,NE,1675442326
230,vagur,61.4732,-6.8119,280.08,95,100,12.06,FO,1675442267
231,moron,-34.6534,-58.6198,301.46,65,62,3.78,AR,1675442326
232,shitanjing,39.2342,106.3439,267.98,37,1,1.43,CN,1675442327
233,urumqi,43.801,87.6005,262.68,79,100,1.0,CN,1675442327
234,narsaq,60.9167,-46.05,262.27,83,99,3.09,GL,1675442328
235,klaksvik,62.2266,-6.589,278.66,97,100,14.34,FO,1675442328
236,kendari,-3.945,122.4989,297.05,93,100,1.51,ID,1675442329
237,dahuk,36.8695,42.994,277.59,66,29,2.05,IQ,1675442329
238,padang,-0.9492,100.3543,297.92,85,48,1.65,ID,1675442329
239,sibolga,1.7427,98.7792,297.48,86,61,1.6,ID,1675442330
240,sheregesh,52.9209,87.9869,259.05,98,74,0.76,RU,1675442330
241,tonj,7.2737,28.6822,302.45,13,71,2.28,SS,1675442331
242,port blair,11.6667,92.75,299.31,76,6,2.81,IN,1675442158
243,mumford,5.2618,-0.759,301.16,77,32,5.99,GH,1675442332
244,weil der stadt,48.75,8.8667,279.94,86,100,8.22,DE,1675442332
245,opunake,-39.4556,173.8583,294.88,94,75,3.34,NZ,1675442333
246,juneau,58.3019,-134.4197,274.32,97,100,3.09,US,1675442333
247,olinda,-8.0089,-34.8553,303.0,62,40,4.12,BR,1675442212
248,kentau,43.5206,68.5094,274.74,89,99,1.37,KZ,1675442334
249,broome,42.2506,-75.833,260.47,70,100,6.71,US,1675442147
250,kabinda,-6.1333,24.4833,295.38,83,54,2.27,CD,1675442334
251,kulunda,52.566,78.9385,251.97,100,19,1.63,RU,1675442334
252,boa vista,2.8197,-60.6733,304.14,51,75,6.69,BR,1675442337
253,sohbatpur,28.5202,68.5434,292.06,28,2,2.02,PK,1675442337
254,north platte,41.1239,-100.7654,264.09,86,0,2.57,US,1675442338
255,kiama,-34.6833,150.8667,292.59,58,16,1.34,AU,1675442338
256,umm kaddadah,13.6017,26.6876,294.21,15,67,5.69,SD,1675442339
257,gorontalo,0.5412,123.0595,296.21,91,100,1.43,ID,1675442339
258,kroya,-7.6331,109.2461,299.08,86,100,2.72,ID,1675442339
259,pangnirtung,66.1451,-65.7125,238.15,75,75,1.54,CA,1675442340
260,havre-saint-pierre,50.2334,-63.5986,260.35,78,100,10.8,CA,1675442130
261,saint-pierre,-21.3393,55.4781,298.97,78,100,10.29,RE,1675442257
262,xining,36.6167,101.7667,269.15,46,0,0.65,CN,1675442341
263,solnechnyy,50.7214,136.6319,245.87,98,51,1.6,RU,1675442341
264,moscow,55.7522,37.6156,273.5,97,100,3.61,RU,1675442263
265,walvis bay,-22.9575,14.5053,291.53,74,37,5.08,NA,1675442342
266,sisimiut,66.9395,-53.6735,257.81,89,100,3.65,GL,1675442342
267,pampa,35.5362,-100.9599,280.48,45,0,6.17,US,1675442085
268,kathu,7.9178,98.3332,298.05,82,100,4.8,TH,1675442343
269,kautokeino,69.0125,23.0412,256.82,100,100,1.07,NO,1675442343
270,lobito,-12.3481,13.5456,299.13,77,100,3.57,AO,1675442344
271,kenitra,34.261,-6.5802,292.57,52,0,6.7,MA,1675442344
272,yerbogachen,61.2767,108.0108,253.74,100,99,0.98,RU,1675442345
273,saint anthony,45.0205,-93.218,253.18,63,100,2.57,US,1675442345
274,quatre cocos,-20.2078,57.7625,299.31,83,38,5.67,MU,1675442346
275,saint-joseph,-21.3667,55.6167,298.36,86,90,6.8,RE,1675442346
276,tereze,43.9361,42.4434,271.23,66,46,2.14,RU,1675442346
277,chernyshevskiy,63.0128,112.4714,242.84,100,96,0.95,RU,1675442347
278,rayagada,19.1667,83.4167,291.43,61,15,1.11,IN,1675442347
279,zapolyarnyy,69.4154,30.8136,250.75,100,98,2.28,RU,1675442347
280,nanortalik,60.1432,-45.2371,265.12,69,99,16.69,GL,1675442327
281,savalou,7.9281,1.9756,310.3,21,39,1.72,BJ,1675442348
282,alofi,-19.0595,-169.9187,296.09,94,100,3.09,NU,1675442348
283,tyumentsevo,53.3224,81.498,253.85,100,43,1.4,RU,1675442349
284,marawi,7.9986,124.2928,291.79,95,68,0.35,PH,1675442349
285,divo,5.8397,-5.36,307.3,38,9,3.63,CI,1675442349
286,tiksi,71.6872,128.8694,235.98,99,77,0.83,RU,1675442350
287,khatanga,71.9667,102.5,236.92,100,59,1.69,RU,1675442094
288,afua,-0.1567,-50.3867,301.02,80,82,2.8,BR,1675442350
289,teguise,29.0605,-13.564,289.27,63,20,2.57,ES,1675442351
290,zhob,31.3411,69.4481,285.22,53,24,1.59,PK,1675442351
291,goderich,43.7501,-81.7165,261.99,78,100,9.77,CA,1675442141
292,dunedin,-45.8742,170.5036,291.93,83,33,0.38,NZ,1675442076
293,yenagoa,4.9247,6.2642,306.26,48,78,3.98,NG,1675442352
294,taonan,45.3333,122.7833,255.27,90,12,2.28,CN,1675442352
295,lewisporte,49.2499,-55.0482,271.99,91,100,8.8,CA,1675442352
296,dashitou,43.3067,128.5114,258.39,87,99,1.43,CN,1675442353
297,virpur,23.1833,73.4833,294.09,21,2,2.94,IN,1675442353
298,guerrero negro,27.9769,-114.0611,290.53,43,46,2.12,MX,1675442246
299,marienburg,54.0359,19.0266,273.09,94,100,6.22,PL,1675442354
300,iqaluit,63.7506,-68.5145,238.0,59,40,6.17,CA,1675442354
301,sorland,67.667,12.6934,275.07,64,4,4.01,NO,1675442355
302,port moresby,-9.4431,147.1797,297.83,94,20,2.57,PG,1675442355
303,merauke,-8.4667,140.3333,299.33,87,99,5.06,ID,1675442356
304,waingapu,-9.6567,120.2641,298.0,89,100,3.9,ID,1675442356
305,north bend,43.4065,-124.2243,284.3,83,100,9.26,US,1675442357
306,xingyi,24.1877,102.817,281.73,94,42,1.52,CN,1675442358
307,colwyn bay,53.2948,-3.7267,285.13,42,60,3.13,GB,1675442358
308,kruisfontein,-34.0033,24.7314,293.9,71,5,5.88,ZA,1675442358
309,basco,20.4487,121.9702,297.14,74,33,7.61,PH,1675442359
310,newport,51.5877,-2.9984,284.44,89,43,2.98,GB,1675442220
311,velke mezirici,49.3552,16.0122,277.88,89,100,3.58,CZ,1675442359
312,egvekinot,66.3167,-179.1667,246.58,86,10,7.35,RU,1675442360
313,kampong cham,11.9934,105.4635,300.47,61,100,2.61,KH,1675442360
314,atasu,48.6814,71.6433,269.32,97,100,2.49,KZ,1675442360
315,gresham,45.4982,-122.4315,279.4,68,100,7.72,US,1675442361
316,barcelona,41.3888,2.159,289.78,62,0,3.6,ES,1675442188
317,los llanos de aridane,28.6585,-17.9182,292.01,70,20,3.09,ES,1675442361
318,zhuhai,22.2769,113.5678,293.07,82,40,4.63,CN,1675442362
319,husavik,66.0449,-17.3389,274.64,83,100,5.16,IS,1675442362
320,manggar,-2.8833,108.2667,299.12,84,100,2.36,ID,1675442363
321,yulara,-25.2406,130.9889,292.79,38,0,6.18,AU,1675442363
322,beloha,-25.1667,45.05,296.41,85,73,6.38,MG,1675442363
323,skibbereen,51.55,-9.2667,283.77,86,100,6.73,IE,1675442364
324,pacific grove,36.6177,-121.9166,285.42,82,100,0.89,US,1675442364
325,auki,-8.7676,160.7034,298.55,87,90,0.24,SB,1675442364
326,lompoc,34.6391,-120.4579,289.14,65,75,4.92,US,1675442364
327,vrede,-27.4257,29.1659,289.71,85,61,5.3,ZA,1675442365
328,lata,40.1629,-8.3327,288.6,57,0,1.48,PT,1675442365
329,mortka,59.3322,66.0214,259.88,97,22,1.99,RU,1675442365
330,digras,20.1167,77.7167,294.64,15,5,0.13,IN,1675442326
331,ambilobe,-13.2,49.05,297.96,88,12,0.48,MG,1675442272
332,bolama,11.5833,-15.4667,309.34,61,17,7.32,GW,1675442366
333,ahipara,-35.1667,173.1667,292.85,96,100,2.86,NZ,1675442367
334,yuli,9.6989,10.2744,307.13,13,79,3.47,NG,1675442367
335,kikwit,-5.041,18.8162,300.0,62,46,0.88,CD,1675442368
336,bardiyah,31.7561,25.0865,287.17,73,32,8.11,LY,1675442368
337,pascagoula,30.3658,-88.5561,284.84,54,0,5.14,US,1675442083
338,ponta do sol,32.6667,-17.1,291.5,50,64,3.5,PT,1675442368
339,pangody,65.85,74.4859,257.42,97,94,2.69,RU,1675442369
340,qui nhon,13.7667,109.2333,296.35,89,100,2.79,VN,1675442369
341,brae,60.3964,-1.353,278.16,75,100,2.55,GB,1675442369
342,sharjah,25.3573,55.4033,297.14,68,0,2.06,AE,1675442356
343,governador valadares,-18.8511,-41.9494,303.76,59,4,1.45,BR,1675442332
344,panino,51.6467,40.1346,272.17,94,99,4.42,RU,1675442370
345,qasigiannguit,68.8193,-51.1922,261.29,97,100,2.26,GL,1675442370
346,khani,41.9563,42.9566,270.91,75,16,2.27,GE,1675442371
347,srednekolymsk,67.45,153.6833,244.71,98,100,2.16,RU,1675442371
348,general pico,-35.6566,-63.7568,302.35,31,0,3.65,AR,1675442371
349,jawhar,2.7809,45.5005,297.3,68,80,8.3,SO,1675442372
350,sarh,9.1429,18.3923,310.1,9,0,2.57,TD,1675442372
351,kushiro,42.975,144.3747,261.43,93,36,3.03,JP,1675442372
352,moshi,-3.35,37.3333,305.36,43,80,3.12,TZ,1675442372
353,sao filipe,14.8961,-24.4956,295.14,72,84,4.92,CV,1675442373
354,isangel,-19.55,169.2667,300.82,84,95,5.29,VU,1675442373
355,shingu,33.7333,135.9833,276.42,57,2,2.64,JP,1675442373
356,touros,-5.1989,-35.4608,303.2,60,80,7.21,BR,1675442374
357,audru,58.4086,24.3739,271.18,69,100,2.06,EE,1675442374
358,antofagasta,-23.65,-70.4,296.75,71,6,4.06,CL,1675442375
359,fukue,32.6881,128.8419,281.74,67,86,8.56,JP,1675442218
360,lagoa,39.05,-27.9833,288.63,79,77,5.51,PT,1675442295
361,hamilton,39.1834,-84.5333,269.84,58,40,5.66,US,1675442375
362,redlands,34.0556,-117.1825,289.35,36,100,0.11,US,1675442335
363,bandar-e lengeh,26.5579,54.8807,294.21,78,0,2.06,IR,1675442376
364,grootfontein,-19.5667,18.1167,298.1,57,100,2.02,NA,1675442376
365,maceio,-9.6658,-35.7353,304.84,55,40,5.14,BR,1675442273
366,chuy,-33.6971,-53.4616,293.5,90,96,6.1,UY,1675442376
367,hami,42.8,93.45,270.75,45,61,1.61,CN,1675442377
368,wajir,1.7471,40.0573,305.5,28,75,3.31,KE,1675442377
369,tessalit,20.1986,1.0114,294.04,10,56,7.11,ML,1675442378
370,sur,22.5667,59.5289,294.44,61,0,2.1,OM,1675442379
371,port macquarie,-31.4333,152.9167,292.76,57,2,4.66,AU,1675442379
372,hammerfest,70.6634,23.6821,266.4,86,40,1.03,NO,1675442380
373,la ronge,55.1001,-105.2842,255.29,78,100,6.17,CA,1675442380
374,plettenberg bay,-34.0527,23.3716,293.21,80,11,3.95,ZA,1675442380
375,mandalgovi,45.7625,106.2708,261.41,53,0,4.19,MN,1675442381
376,sobolevo,54.4299,31.8996,268.57,95,99,3.21,RU,1675442381
377,jasper,37.2001,-94.3502,271.54,44,0,2.57,US,1675442381
378,san juan,-31.5375,-68.5364,303.5,29,17,7.35,AR,1675442382
379,svetlyy,54.675,20.1347,273.18,75,100,5.13,RU,1675442382
380,coruripe,-10.1256,-36.1756,303.23,55,48,5.89,BR,1675442383
381,saint george,37.1041,-113.5841,278.29,62,0,0.0,US,1675442228
382,longjiang,47.3303,123.1836,252.44,93,25,2.13,CN,1675442383
383,kedrovyy,56.1667,91.8167,256.41,99,100,0.95,RU,1675442383
384,half moon bay,37.4636,-122.4286,283.77,93,100,5.66,US,1675442258
385,kavaratti,10.5669,72.642,300.42,65,50,1.27,IN,1675442384
386,dauriya,49.9333,116.8667,245.37,100,95,1.09,RU,1675442384
387,mendi,-6.1761,143.6513,287.14,99,100,0.03,PG,1675442384
388,loiza,18.4313,-65.8802,301.93,69,40,7.72,PR,1675442384
389,greystones,53.1408,-6.0631,285.88,79,61,3.15,IE,1675442385
390,pitimbu,-7.4706,-34.8086,304.48,60,89,5.99,BR,1675442385
391,beringovskiy,63.05,179.3167,248.42,93,88,5.96,RU,1675442385
392,mahebourg,-20.4081,57.7,299.4,89,40,3.09,MU,1675442386
393,ekhabi,53.5102,142.9671,245.55,97,71,4.61,RU,1675442386
394,koulikoro,14.0,-7.75,306.53,8,6,4.38,ML,1675442386
395,jinan,36.6683,116.9972,275.4,43,1,0.87,CN,1675442387
396,belmonte,-15.8631,-38.8828,302.51,56,1,4.34,BR,1675442387
397,grand-lahou,5.1367,-5.0242,301.9,71,8,4.47,CI,1675442387
398,puerto narino,-3.7703,-70.3831,296.75,94,100,0.85,CO,1675442388
399,mundo nuevo,18.7,-95.5,293.06,74,98,15.51,MX,1675442388
400,hull,53.7446,-0.3353,285.34,47,100,6.69,GB,1675442378
401,berlevag,70.8578,29.0864,270.15,86,75,4.63,NO,1675442388
402,ancud,-41.8697,-73.8203,294.49,64,0,3.26,CL,1675442388
403,dangara,29.6799,75.8931,287.11,43,0,1.95,IN,1675442389
404,grindavik,63.8424,-22.4338,281.41,93,100,19.55,IS,1675442276
405,cap malheureux,-19.9842,57.6142,299.52,80,8,2.68,MU,1675442389
406,pemangkat,1.1667,108.9667,296.83,94,100,2.04,ID,1675442389
407,ercis,39.0287,43.3586,262.44,82,13,2.29,TR,1675442390
408,bonavista,48.6499,-53.1147,272.78,93,100,16.02,CA,1675442390
409,lavrentiya,65.5833,-171.0,247.13,92,44,3.46,RU,1675442391
410,nakusp,50.2499,-117.8023,271.34,93,100,0.51,CA,1675442391
411,consett,54.854,-1.8316,283.35,79,94,6.91,GB,1675442391
412,baraki barak,33.9675,68.9486,272.36,97,96,0.84,AF,1675442392
413,partenit,44.578,34.3446,277.78,74,63,2.71,UA,1675442392
414,gerede,40.8008,32.1969,268.44,96,100,0.32,TR,1675442392
415,helena,46.5927,-112.0361,272.59,82,0,0.45,US,1675442250
416,belousovka,50.1339,82.5239,263.62,92,100,2.0,KZ,1675442393
417,chittaurgarh,24.8833,74.6333,290.32,27,0,1.07,IN,1675442393
418,asau,46.4333,26.4,271.66,91,92,2.1,RO,1675442393
419,bagdarin,54.4333,113.6,249.74,93,94,1.85,RU,1675442394
420,soddy-daisy,35.2359,-85.1908,278.48,58,6,1.79,US,1675442394
421,vardo,70.3705,31.1107,269.14,86,40,8.75,NO,1675442395
422,sukhumi,43.0033,41.0153,279.05,73,89,2.4,GE,1675442395
423,gobabis,-22.45,18.9667,300.78,43,83,4.85,NA,1675442395
424,mgandu,-5.95,34.1333,289.97,93,92,0.7,TZ,1675442396
425,svetlogorsk,52.6333,29.7333,270.42,87,100,2.65,BY,1675442396
426,xanlar,40.5869,46.3158,272.88,80,40,3.09,AZ,1675442396
427,uthal,25.8072,66.6219,293.36,52,0,1.7,PK,1675442396
428,saint-georges,12.0564,-61.7485,300.97,69,20,11.32,GD,1675442397
429,minsk,53.9,27.5667,270.01,89,100,0.8,BY,1675442380
430,katsuura,35.1333,140.3,279.98,83,100,4.66,JP,1675442397
431,kingaroy,-26.5333,151.8333,296.63,67,92,1.27,AU,1675442398
432,kasempa,-13.4584,25.8338,293.06,90,97,1.24,ZM,1675442398
433,nome,64.5011,-165.4064,244.19,91,0,0.0,US,1675442399
434,kirakira,-10.4544,161.9205,299.4,84,50,2.09,SB,1675442399
435,celestun,20.8667,-90.4,298.83,71,49,6.67,MX,1675442400
436,atar,20.5169,-13.0499,298.98,9,86,5.56,MR,1675442400
437,banjar,-8.19,114.9675,298.15,88,100,0.98,ID,1675442400
438,sola,-13.8833,167.55,300.67,75,38,2.07,VU,1675442401
439,luderitz,-26.6481,15.1594,294.21,65,38,10.76,NA,1675442402
440,tigre,-34.426,-58.5796,301.6,68,75,6.17,AR,1675442403
441,payo,-3.7508,103.6372,296.43,91,96,0.96,ID,1675442403
442,cabedelo,-6.9811,-34.8339,304.52,63,48,6.55,BR,1675442326
443,kanye,-24.9667,25.3327,293.78,77,60,2.94,BW,1675442404
444,tonstad,58.6626,6.7169,274.97,98,100,1.68,NO,1675442405
445,fairbanks,64.8378,-147.7164,259.13,85,100,0.0,US,1675442405
446,mugan,35.9404,101.3842,271.15,23,7,1.08,CN,1675442406
447,kampong chhnang,12.1667,104.55,300.88,62,86,3.42,KH,1675442406
448,mezen,65.8522,44.24,261.61,98,99,1.19,RU,1675442407
449,yar-sale,66.8333,70.8333,259.95,97,100,2.85,RU,1675442407
450,aasiaat,68.7098,-52.8699,256.88,95,100,4.32,GL,1675442408
451,wahpeton,46.2652,-96.6059,253.67,65,100,9.77,US,1675442409
452,kuryk,43.2,51.65,276.53,86,100,7.77,KZ,1675442409
453,avera,33.194,-82.5271,284.01,61,98,3.69,US,1675442410
454,mehran,33.1222,46.1646,284.71,51,0,3.42,IR,1675442410
455,meadville,41.6414,-80.1515,263.74,84,100,6.69,US,1675442384
456,gisborne,-38.6533,178.0042,290.85,93,14,3.02,NZ,1675442411
457,omboue,-1.5746,9.2618,301.2,78,66,3.68,GA,1675442411
458,norrtalje,59.758,18.705,272.6,73,73,3.48,SE,1675442412
459,svetlaya,46.5389,138.3297,258.28,82,0,2.61,RU,1675442413
460,sao miguel do iguacu,-25.3481,-54.2378,298.64,78,100,2.23,BR,1675442131
461,prachuap khiri khan,12.2167,99.75,294.49,91,4,1.29,TH,1675442414
462,sheridan,44.8333,-106.9173,276.74,51,0,3.09,US,1675442414
463,soubre,5.7856,-6.6083,309.31,27,25,1.22,CI,1675442415
464,najran,17.4924,44.1277,294.51,27,100,2.03,SA,1675442415
465,somerton,32.5964,-114.7097,288.71,33,75,2.57,US,1675442416
466,silver city,32.7701,-108.2803,281.31,32,0,6.69,US,1675442416
467,mikhaylovka,50.06,43.2379,266.49,97,10,1.59,RU,1675442417
468,alibag,18.6411,72.8792,301.19,66,79,3.51,IN,1675442308
469,vysokogornyy,50.1167,139.15,243.67,100,88,0.88,RU,1675442418
470,tuatapere,-46.1333,167.6833,289.71,94,34,2.08,NZ,1675442418
471,mananjary,-21.2167,48.3333,297.34,90,39,2.98,MG,1675442418
472,morden,49.1919,-98.1014,254.39,65,100,5.14,CA,1675442419
473,ketchikan,55.3422,-131.6461,278.14,93,100,1.54,US,1675442149
474,kasamwa,-2.85,32.4333,293.14,71,72,1.62,TZ,1675442419
475,lorengau,-2.0226,147.2712,300.27,74,100,0.41,PG,1675442420
476,luau,-10.7073,22.2247,293.18,91,82,3.02,AO,1675442420
477,inyonga,-6.7167,32.0667,292.91,83,93,0.85,TZ,1675442421
478,faya,18.3851,42.4509,288.21,63,10,2.22,SA,1675442422
479,port pirie,-33.1833,138.0167,286.97,63,2,3.89,AU,1675442422
480,balkanabat,39.5108,54.3671,279.64,86,36,4.61,TM,1675442423
481,bathsheba,13.2167,-59.5167,302.49,58,40,8.75,BB,1675442424
482,thinadhoo,0.5333,72.9333,300.5,70,22,7.35,MV,1675442424
483,zhangzhou,24.5133,117.6556,287.11,83,94,0.83,CN,1675442425
484,port augusta,-32.5,137.7667,288.03,60,43,2.17,AU,1675442425
485,san luis,-33.295,-66.3356,300.9,27,0,6.15,AR,1675442264
486,morondava,-20.2833,44.2833,300.57,80,0,4.11,MG,1675442220
487,bilibino,68.0546,166.4372,248.79,100,52,2.39,RU,1675442426
488,samarai,-10.6167,150.6667,300.44,80,100,1.27,PG,1675442426
489,ambulu,-8.345,113.6058,297.42,89,100,1.03,ID,1675442427
490,eskil,38.4017,33.4131,272.14,67,47,3.66,TR,1675442427
491,la tuque,47.4334,-72.7824,242.29,51,100,6.69,CA,1675442428
492,tsuruoka,38.7217,139.8217,273.82,74,100,1.55,JP,1675442428
493,argostolion,38.1811,20.489,286.19,54,20,5.14,GR,1675442429
494,nagothana,18.5333,73.1333,296.12,55,96,1.37,IN,1675442429
495,aykhal,66.0,111.5,244.72,100,100,2.13,RU,1675442430
496,nyurba,63.2842,118.3319,244.79,100,100,1.25,RU,1675442430
497,jakar,27.5492,90.7525,274.03,81,11,1.79,BT,1675442430
498,akureyri,65.6835,-18.0878,274.11,93,40,4.12,IS,1675442431
499,bayanday,53.0661,105.5139,256.03,98,100,1.13,RU,1675442431
500,callaway,30.153,-85.5699,287.54,74,75,7.72,US,1675442432
501,rock springs,41.5875,-109.2029,262.84,85,0,0.0,US,1675442433
502,palmer,42.1584,-72.3287,264.9,26,20,8.75,US,1675442434
503,matara,5.9485,80.5353,296.97,92,74,1.31,LK,1675442434
504,paamiut,61.994,-49.6678,260.26,79,98,5.6,GL,1675442290
505,mogadishu,2.0371,45.3438,297.97,78,66,9.7,SO,1675442435
506,constitucion,-35.3333,-72.4167,295.24,63,5,4.09,CL,1675442435
507,bud,39.447,-86.1758,267.7,61,2,4.57,US,1675442436
508,bithur,26.6333,80.2833,287.66,51,0,3.19,IN,1675442436
509,chapais,49.7834,-74.8492,239.03,82,100,6.64,CA,1675442437
510,ovre ardal,61.3167,7.8,266.64,90,64,2.62,NO,1675442437
511,west wendover,40.7391,-114.0733,268.13,78,95,0.18,US,1675442437
512,zyryanka,65.75,150.85,241.45,99,100,2.13,RU,1675442438
513,shubarshi,48.5872,57.1869,263.27,84,50,3.76,KZ,1675442438
514,kaeo,-35.1,173.7833,294.44,95,100,1.95,NZ,1675442438
515,marzuq,14.4,46.4667,294.12,41,38,1.29,YE,1675442439
516,te anau,-45.4167,167.7167,288.9,95,51,0.51,NZ,1675442439
517,houma,29.5958,-90.7195,285.37,64,0,8.23,US,1675442379
518,gornopravdinsk,60.05,69.9,256.47,98,51,1.82,RU,1675442440
519,kristiinankaupunki,62.2743,21.376,267.09,90,85,4.92,FI,1675442440
520,petropavlovka,50.6114,105.3196,251.38,97,46,1.38,RU,1675442440
521,marshall,34.3834,-86.3333,277.81,62,0,6.17,US,1675442441
522,ilhabela,-23.7781,-45.3581,300.91,75,100,0.91,BR,1675442441
523,lucea,18.451,-78.1736,300.29,66,10,5.49,JM,1675442355
524,chegdomyn,51.1167,133.0167,240.36,100,42,0.83,RU,1675442442
525,mvuma,-19.2792,30.5283,295.9,58,98,0.66,ZW,1675442442
526,de-kastri,51.4667,140.7833,248.1,97,21,2.26,RU,1675442442
527,nouadhibou,20.931,-17.0347,299.14,14,100,2.06,MR,1675442443
528,belaya gora,68.5333,146.4167,238.51,100,95,0.67,RU,1675442443
529,salinopolis,-0.6136,-47.3561,300.13,83,66,4.29,BR,1675442443
530,los chiles,11.0333,-84.7167,301.5,61,59,3.32,CR,1675442444
531,mosquera,4.7059,-74.2302,291.2,39,40,2.57,CO,1675442444
532,dhadar,28.3305,75.0632,292.12,25,0,2.65,IN,1675442445
533,lugovoy,42.9472,72.7644,274.93,86,100,2.17,KZ,1675442446
534,haapiti,-17.5667,-149.8667,299.0,76,80,6.77,PF,1675442446
535,evans,33.5337,-82.1307,284.76,81,100,4.12,US,1675442175
536,namibe,-15.1961,12.1522,296.56,75,84,3.66,AO,1675442448
537,obzor,42.8167,27.8833,278.27,62,72,2.38,BG,1675442448
538,leh,34.1667,77.5833,262.24,84,74,1.08,IN,1675442449
539,chase,50.8165,-119.6857,272.68,95,100,1.44,CA,1675442436
540,vangaindrano,-23.35,47.6,296.2,92,55,2.04,MG,1675442279
541,santa cruz,-17.8,-63.1667,295.18,88,100,6.69,BO,1675442208
542,san quintin,30.4833,-115.95,289.36,43,100,2.49,MX,1675442297
543,sovetskaya,44.7769,41.1722,275.77,60,100,3.43,RU,1675442451
544,tara,56.8944,74.371,261.77,98,100,0.88,RU,1675442451
545,akdepe,42.0551,59.3788,274.2,61,100,3.29,TM,1675442451
546,san andres,12.5847,-81.7006,302.16,70,20,6.17,CO,1675442452
547,zarechnyy,53.2036,45.1923,271.1,94,100,1.59,RU,1675442452
548,kalmunai,7.4167,81.8167,298.27,84,9,1.91,LK,1675442453
549,nemuro,43.3236,145.575,263.58,85,50,2.44,JP,1675442453
550,caraquet,47.7941,-64.9386,254.45,84,50,10.66,CA,1675442453
551,champerico,14.3,-91.9167,304.45,59,6,3.52,GT,1675442453
552,san alberto,7.7611,-73.3922,305.39,41,63,2.73,CO,1675442454
