City_ID,City,Lat,Lng,Max Temp,Humidity,Cloudiness,Wind Speed,Country,Date
0,santa fe,-31.6333,-60.7,35.57,26,13,1.79,AR,1675702296
1,yellowknife,62.456,-114.3525,-28.58,76,0,2.06,CA,1675702472
2,rikitea,-23.1203,-134.9692,25.63,73,18,2.3,PF,1675702472
3,kapaa,22.0752,-159.319,21.17,94,16,5.83,US,1675702473
4,nhulunbuy,-12.2333,136.7667,26.34,89,100,1.54,AU,1675702473
5,hermanus,-34.4187,19.2345,25.45,75,46,6.89,ZA,1675702193
6,pevek,69.7008,170.3133,-37.89,100,99,1.73,RU,1675702474
7,carnarvon,-24.8667,113.6333,24.54,73,0,9.24,AU,1675702474
8,nikolskoye,59.7035,30.7861,-1.06,95,99,2.56,RU,1675702475
9,mar del plata,-38.0023,-57.5575,26.02,62,0,7.2,AR,1675702385
10,pisco,-13.7,-76.2167,25.03,83,0,4.12,PE,1675702476
11,esperance,-33.8667,121.9,24.07,47,50,5.0,AU,1675702476
12,alice springs,-23.7,133.8833,20.75,60,20,1.54,AU,1675702376
13,charagua,-19.8,-63.2167,30.76,40,100,4.34,BO,1675702477
14,saskylakh,71.9167,114.0833,-28.52,99,100,2.12,RU,1675702477
15,ghanzi,-21.5667,21.7833,27.12,46,100,3.51,BW,1675702477
16,bethel,41.3712,-73.414,10.2,54,0,6.69,US,1675702478
17,la tuque,47.4334,-72.7824,-9.86,62,79,3.6,CA,1675702479
18,nizhnyaya omka,55.4338,74.9426,-14.09,98,100,1.61,RU,1675702479
19,busselton,-33.65,115.3333,18.77,84,23,5.6,AU,1675702480
20,shalya,57.2471,58.7298,-10.21,98,100,0.68,RU,1675702480
21,mendoza,-32.8908,-68.8272,32.74,33,20,4.63,AR,1675702227
22,hilo,19.7297,-155.09,22.38,96,100,3.6,US,1675702480
23,longyearbyen,78.2186,15.6401,0.91,80,75,10.8,SJ,1675702377
24,fort nelson,58.8053,-122.7002,-15.59,89,75,0.45,CA,1675702483
25,hornepayne,49.2138,-84.7705,-7.4,86,71,4.41,CA,1675702484
26,akdepe,42.0551,59.3788,3.05,53,84,5.77,TM,1675702484
27,barrow,71.2906,-156.7887,-21.99,84,100,4.63,US,1675702485
28,whitehorse,60.7161,-135.0538,-5.57,86,40,7.72,CA,1675702473
29,qaanaaq,77.484,-69.3632,-26.03,98,99,2.3,GL,1675702485
30,bluff,-46.6,168.3333,15.79,69,50,8.28,NZ,1675702301
31,new norfolk,-42.7826,147.0587,12.62,64,75,0.89,AU,1675702486
32,bonavista,48.6499,-53.1147,-2.79,91,100,4.9,CA,1675702357
33,hobart,-42.8794,147.3294,12.81,77,56,1.54,AU,1675702486
34,punta arenas,-53.15,-70.9167,11.47,83,100,7.12,CL,1675702191
35,thompson,55.7435,-97.8558,-8.91,92,100,1.03,CA,1675702487
36,santa rosa,14.3122,121.1114,26.99,82,24,3.2,PH,1675702488
37,silver city,32.7701,-108.2803,9.98,34,0,7.2,US,1675702434
38,saint george,37.1041,-113.5841,5.24,76,0,3.09,US,1675702488
39,cantagallo,7.376,-73.9196,31.32,43,85,1.26,CO,1675702488
40,lavrentiya,65.5833,-171.0,-28.25,90,47,2.54,RU,1675702310
41,isangel,-19.55,169.2667,26.3,84,100,2.34,VU,1675702489
42,ust-kuyga,70.0167,135.6,-42.76,100,98,1.76,RU,1675702489
43,bacolod,10.6667,122.95,25.09,82,56,2.77,PH,1675702210
44,ushuaia,-54.8,-68.3,13.81,62,75,9.26,AR,1675702490
45,bredasdorp,-34.5322,20.0403,22.64,82,86,6.08,ZA,1675702490
46,vaini,-21.2,-175.2,22.09,100,20,0.0,TO,1675702490
47,seoul,37.5683,126.9778,-1.24,93,0,2.57,KR,1675702332
48,abu samrah,35.3029,37.1841,6.8,83,75,12.47,SY,1675702491
49,lorengau,-2.0226,147.2712,26.78,81,100,2.93,PG,1675702491
50,avarua,-21.2078,-159.775,26.03,94,20,4.63,CK,1675702492
51,tasiilaq,65.6145,-37.6368,-8.91,97,82,1.82,GL,1675702492
52,narsaq,60.9167,-46.05,-14.88,68,64,3.06,GL,1675702493
53,port alfred,-33.5906,26.891,23.99,86,6,2.68,ZA,1675702493
54,saint anthony,45.0205,-93.218,0.06,76,75,6.17,US,1675702493
55,asyut,27.181,31.1837,15.1,29,3,4.24,EG,1675702349
56,mataura,-46.1927,168.8643,15.31,56,2,3.83,NZ,1675702494
57,eureka,40.8021,-124.1637,4.23,98,67,1.36,US,1675702203
58,nogliki,51.8333,143.1667,-25.93,98,54,2.83,RU,1675702494
59,burnie,-41.0667,145.9167,13.86,73,19,5.27,AU,1675702495
60,amalapuram,16.5833,82.0167,19.83,85,83,0.22,IN,1675702495
61,dwarka,22.2394,68.9678,21.42,84,3,4.91,IN,1675702496
62,college,64.8569,-147.8028,-20.03,84,75,2.06,US,1675702498
63,atuona,-9.8,-139.0333,25.64,73,38,7.49,PF,1675702251
64,victoria,22.2855,114.1577,20.53,91,80,1.79,HK,1675702383
65,mahibadhoo,3.7833,72.9667,27.37,73,100,5.49,MV,1675702499
66,nueva loja,0.0847,-76.8828,23.01,100,75,1.54,EC,1675702500
67,albany,42.6001,-73.9662,4.65,76,100,2.24,US,1675702447
68,buraydah,26.326,43.975,22.25,22,25,3.03,SA,1675702466
69,lompoc,34.6391,-120.4579,12.23,71,0,10.73,US,1675702491
70,cabo san lucas,22.8909,-109.9124,24.47,65,7,2.21,MX,1675702501
71,swan hill,-35.3378,143.5544,17.09,64,0,3.93,AU,1675702503
72,alexander city,32.944,-85.9539,18.51,39,0,0.0,US,1675702485
73,butaritari,3.0707,172.7902,26.61,83,100,7.87,KI,1675702506
74,puerto escondido,15.85,-97.0667,28.57,53,0,2.83,MX,1675702507
75,oranjestad,12.524,-70.027,28.97,61,20,10.8,AW,1675702227
76,luderitz,-26.6481,15.1594,20.26,79,9,7.64,NA,1675702508
77,souillac,-20.5167,57.5167,27.21,78,75,3.6,MU,1675702509
78,sitka,57.0531,-135.33,2.94,87,75,2.57,US,1675702510
79,alice town,25.7167,-79.3,23.8,70,44,6.41,BS,1675702511
80,arraial do cabo,-22.9661,-42.0278,31.98,62,20,4.63,BR,1675702499
81,aitape,-3.1374,142.3475,25.07,90,100,2.04,PG,1675702513
82,fomboni,-12.28,43.7425,28.21,71,100,3.34,KM,1675702513
83,abbeville,50.1,1.8333,6.98,78,4,3.17,FR,1675702514
84,kloulklubed,7.0419,134.2556,24.28,74,100,8.37,PW,1675702515
85,hualmay,-11.0964,-77.6139,23.37,78,99,1.69,PE,1675702515
86,nantucket,41.2835,-70.0995,8.08,80,100,6.69,US,1675702516
87,aklavik,68.2191,-135.0107,-36.0,68,75,0.0,CA,1675702517
88,geraldton,-28.7667,114.6,20.23,77,75,4.12,AU,1675702519
89,ancud,-41.8697,-73.8203,16.7,62,5,3.81,CL,1675702519
90,constitucion,-35.3333,-72.4167,21.49,62,10,4.32,CL,1675702386
91,ponta do sol,32.6667,-17.1,18.34,48,7,3.31,PT,1675702345
92,oum hadjer,13.2954,19.6966,30.22,11,92,4.55,TD,1675702521
93,suez,29.9737,32.5263,13.38,51,74,6.27,EG,1675702522
94,povorino,51.1945,42.2457,-14.32,95,86,2.75,RU,1675702523
95,tuatapere,-46.1333,167.6833,15.07,75,80,3.66,NZ,1675702228
96,touros,-5.1989,-35.4608,29.85,60,45,6.13,BR,1675702333
97,lebu,-37.6167,-73.65,18.34,68,3,8.5,CL,1675702524
98,labuhan,-6.8844,112.2051,24.14,88,100,2.33,ID,1675702525
99,kapit,2.0167,112.9333,23.22,99,98,0.43,MY,1675702526
100,cape town,-33.9258,18.4232,25.51,70,20,6.17,ZA,1675702526
101,denizli,37.8402,29.0698,1.98,83,100,6.1,TR,1675702527
102,los llanos de aridane,28.6585,-17.9182,16.86,77,75,7.2,ES,1675702527
103,frontera,26.9333,-101.45,21.29,35,10,0.89,MX,1675702528
104,bira,49.0,132.4667,-22.41,100,88,1.38,RU,1675702528
105,itaituba,-4.2761,-55.9836,33.09,62,40,5.14,BR,1675702287
106,kapoeta,4.7717,33.5903,31.12,19,23,2.38,SS,1675702529
107,vao,-22.6667,167.4833,25.82,73,44,6.35,NC,1675702529
108,cherskiy,68.75,161.3,-38.02,99,100,2.41,RU,1675702323
109,acapulco,16.8634,-99.8901,27.85,59,0,2.52,MX,1675702391
110,kolokani,13.5728,-8.0339,35.46,8,77,4.04,ML,1675702530
111,ust-omchug,61.15,149.6333,-35.43,98,98,1.73,RU,1675702530
112,port blair,11.6667,92.75,26.11,79,27,2.7,IN,1675702531
113,marystown,47.1666,-55.1483,1.78,99,100,1.1,CA,1675702400
114,stornoway,58.2093,-6.3865,7.98,93,75,12.35,GB,1675702531
115,malartic,48.1335,-78.1328,-17.94,84,23,0.57,CA,1675702532
116,matara,5.9485,80.5353,24.11,89,100,1.65,LK,1675702532
117,airai,-8.9266,125.4092,15.59,95,100,0.8,TL,1675702533
118,hamilton,39.1834,-84.5333,5.68,68,20,2.06,US,1675702246
119,jinji,23.2281,110.8261,16.91,96,100,1.09,CN,1675702534
120,koraput,18.8167,82.7167,17.24,21,31,1.13,IN,1675702534
121,kitimat,54.0524,-128.6534,2.21,31,100,2.25,CA,1675702534
122,portland,45.5234,-122.6762,7.46,90,100,4.47,US,1675702471
123,rio gallegos,-51.6226,-69.2181,21.03,26,75,11.83,AR,1675702321
124,bandarbeyla,9.4942,50.8122,24.32,76,77,7.69,SO,1675702535
125,jamestown,42.097,-79.2353,-0.23,97,100,5.14,US,1675702535
126,mahbubnagar,16.7333,77.9833,23.18,38,10,2.38,IN,1675702536
127,lisakovsk,52.5369,62.4936,-20.61,100,87,2.27,KZ,1675702536
128,chuy,-33.6971,-53.4616,29.42,38,44,2.66,UY,1675702318
129,toamasina,-18.1667,49.3833,25.0,94,75,2.57,MG,1675702537
130,naryan-mar,67.6713,53.087,-18.69,97,68,4.09,RU,1675702537
131,lasa,46.6166,10.7002,3.49,96,34,2.52,IT,1675702472
132,nuuk,64.1835,-51.7216,-13.66,92,75,2.06,GL,1675702538
133,pavlovka,52.6897,47.1405,-16.15,98,37,2.11,RU,1675702538
134,puerto ayora,-0.7393,-90.3518,28.98,90,61,5.81,EC,1675702478
135,flinders,-34.5833,150.8552,22.32,86,100,0.89,AU,1675702539
136,faanui,-16.4833,-151.75,27.4,74,3,7.43,PF,1675702539
137,tanabe,33.7333,135.3667,8.49,45,100,1.94,JP,1675702539
138,vardo,70.3705,31.1107,-1.01,86,75,12.35,NO,1675702540
139,nanortalik,60.1432,-45.2371,-9.56,84,100,3.11,GL,1675702368
140,abingdon,51.6711,-1.2828,8.18,67,0,0.51,GB,1675702541
141,dikson,73.5069,80.5464,-21.41,99,100,1.26,RU,1675702541
142,castro,-24.7911,-50.0119,26.07,49,54,2.25,BR,1675702249
143,bambous virieux,-20.3428,57.7575,27.14,78,75,3.6,MU,1675702292
144,nador,35.174,-2.9287,15.14,55,20,3.09,MA,1675702542
145,balezino,57.9796,53.0106,-20.48,100,56,1.53,RU,1675702542
146,khatanga,71.9667,102.5,-40.56,100,40,1.79,RU,1675702543
147,adrar,20.5022,-10.0711,24.54,14,82,2.57,MR,1675702543
148,ilek,51.5271,53.3831,-17.86,99,71,1.48,RU,1675702544
149,iquique,-20.2208,-70.1431,24.97,72,93,4.04,CL,1675702513
150,yulara,-25.2406,130.9889,23.92,18,0,3.75,AU,1675702544
151,aswan,24.0934,32.907,21.61,26,0,2.57,EG,1675702333
152,crotone,39.0851,17.1178,4.0,70,75,5.66,IT,1675702545
153,oranjemund,-28.55,16.4333,19.59,88,49,4.98,NA,1675702522
154,novozavidovskiy,56.55,36.4333,-13.2,98,56,1.62,RU,1675702545
155,kermanshah,34.3142,47.065,5.5,55,40,8.23,IR,1675702377
156,jalu,29.0331,21.5482,13.34,48,83,6.99,LY,1675702546
157,hervey bay,-25.2986,152.8535,24.78,72,4,6.85,AU,1675702547
158,ribeira grande,38.5167,-28.7,16.22,63,20,12.52,PT,1675702305
159,bilma,18.6853,12.9164,23.26,10,84,4.66,NE,1675702367
160,port pirie,-33.1833,138.0167,22.48,40,0,2.78,AU,1675702547
161,atikokan,48.7555,-91.6216,-2.85,86,91,5.38,CA,1675702548
162,tsumeb,-19.2333,17.7167,23.15,70,100,3.02,NA,1675702549
163,clyde river,70.4692,-68.5914,-31.87,68,20,2.57,CA,1675702550
164,pingliang,35.5392,106.6861,2.66,33,96,0.95,CN,1675702550
165,saint-philippe,-21.3585,55.7679,26.77,84,78,5.12,RE,1675702551
166,talnakh,69.4865,88.3972,-19.92,99,100,2.3,RU,1675702551
167,padang,-0.9492,100.3543,25.03,74,99,1.73,ID,1675702552
168,tanout,14.9709,8.8879,27.26,10,100,6.03,NE,1675702552
169,shakawe,-18.3667,21.85,24.1,71,100,1.62,BW,1675702553
170,darnah,32.767,22.6367,10.05,78,98,10.6,LY,1675702553
171,mizan teferi,6.9833,35.5833,20.39,47,72,0.94,ET,1675702553
172,coari,-4.085,-63.1414,26.64,89,94,0.79,BR,1675702554
173,namibe,-15.1961,12.1522,22.62,77,74,5.31,AO,1675702475
174,dingle,10.9995,122.6711,23.86,92,56,3.35,PH,1675702554
175,mutare,-18.9707,32.6709,20.74,72,51,2.01,ZW,1675702555
176,orlik,52.5178,99.825,-26.59,97,32,1.13,RU,1675702555
177,iqaluit,63.7506,-68.5145,-30.73,61,40,6.17,CA,1675702555
178,kodiak,57.79,-152.4072,1.73,60,0,5.14,US,1675702556
179,georgetown,5.4112,100.3354,24.96,94,20,1.03,MY,1675702433
180,mogadishu,2.0371,45.3438,25.23,85,12,8.26,SO,1675702556
181,san cristobal,7.7669,-72.225,26.1,54,82,3.42,VE,1675702557
182,barra,-11.0894,-43.1417,32.89,35,78,2.51,BR,1675702557
183,tuy hoa,13.0833,109.3,21.42,93,46,0.6,VN,1675702558
184,puro,12.4841,123.3827,25.08,90,43,3.82,PH,1675702558
185,baglung,28.2719,83.5898,11.3,76,88,1.47,NP,1675702559
186,sao felix do xingu,-6.6447,-51.995,31.72,54,87,1.06,BR,1675702559
187,yaan,7.3833,8.5667,36.56,10,56,1.1,NG,1675702559
188,tabory,58.5198,64.5495,-10.4,97,99,1.64,RU,1675702560
189,gouyave,12.1646,-61.7296,23.43,88,75,5.14,GD,1675702560
190,east london,-33.0153,27.9116,27.52,65,0,6.69,ZA,1675702301
191,klaksvik,62.2266,-6.589,8.51,93,100,12.55,FO,1675702561
192,krasnyy oktyabr,56.1167,38.8833,-16.68,100,89,0.88,RU,1675702561
193,camacha,33.0833,-16.3333,14.68,55,75,9.26,PT,1675702461
194,zapolyarnyy,69.4154,30.8136,-3.4,77,100,8.09,RU,1675702562
195,ixtapa,20.7,-105.2,30.53,20,0,1.66,MX,1675702563
196,saldanha,-33.0117,17.9442,24.03,94,48,7.0,ZA,1675702564
197,chokurdakh,70.6333,147.9167,-31.96,98,100,2.32,RU,1675702564
198,severo-kurilsk,50.6789,156.125,-3.48,74,93,5.0,RU,1675702566
199,barra patuca,15.8,-84.2833,27.04,65,18,4.14,HN,1675702566
200,yumen,40.2833,97.2,-2.82,43,54,2.8,CN,1675702567
201,sabya,17.1495,42.6254,27.79,66,37,1.83,SA,1675702568
202,djambala,-2.5447,14.7533,23.46,69,91,2.04,CG,1675702570
203,salalah,17.0151,54.0924,25.05,65,0,2.06,OM,1675702301
204,haines junction,60.7522,-137.5108,-3.03,74,61,2.57,CA,1675702571
205,itajai,-26.9078,-48.6619,33.7,70,20,4.12,BR,1675702571
206,kikwit,-5.041,18.8162,26.03,69,67,0.89,CD,1675702572
207,sarangani,5.4033,125.4636,27.52,75,100,6.26,PH,1675702573
208,aldan,58.6031,125.3894,-41.45,97,70,2.21,RU,1675702574
209,presidencia roque saenz pena,-26.7852,-60.4388,39.4,17,6,2.3,AR,1675702575
210,biak,-0.9131,122.8766,24.61,80,99,1.61,ID,1675702575
211,paamiut,61.994,-49.6678,-10.7,70,100,4.86,GL,1675702576
212,limni,38.7667,23.3167,4.9,75,89,6.0,GR,1675702577
213,ozernovskiy,51.5,156.5167,-6.34,88,100,1.87,RU,1675702579
214,upernavik,72.7868,-56.1549,-23.58,93,100,4.38,GL,1675702312
215,siocon,7.7061,122.1353,24.88,86,72,0.85,PH,1675702580
216,altayskoye,51.9533,85.3325,-3.76,97,100,0.68,RU,1675702581
217,baykit,61.67,96.37,-24.97,100,90,1.35,RU,1675702582
218,lima,-12.0432,-77.0282,26.14,65,0,6.17,PE,1675702646
219,kruisfontein,-34.0033,24.7314,21.99,88,57,2.32,ZA,1675702583
220,morecambe,54.0684,-2.8611,6.14,83,58,2.68,GB,1675702584
221,khasan,42.4308,130.6434,-5.78,81,43,1.77,RU,1675702585
222,luau,-10.7073,22.2247,19.61,89,91,1.35,AO,1675702585
223,bathsheba,13.2167,-59.5167,29.34,61,40,11.32,BB,1675702586
224,oistins,13.0667,-59.5333,29.05,61,40,11.32,BB,1675702587
225,alofi,-19.0595,-169.9187,24.94,94,100,3.6,NU,1675702589
226,poum,-20.2333,164.0167,27.79,81,100,6.89,NC,1675702590
227,champerico,14.3,-91.9167,29.3,66,0,2.55,GT,1675702591
228,funadhoo,6.15,73.2667,27.26,74,93,3.9,MV,1675702592
229,sobolevo,54.4299,31.8996,-4.65,97,100,1.54,RU,1675702593
230,san carlos de bariloche,-41.1456,-71.3082,24.58,23,0,3.6,AR,1675702594
231,humaita,-7.5061,-63.0208,28.29,81,95,0.91,BR,1675702571
232,serebryansk,49.6925,83.2892,-9.27,96,88,1.39,KZ,1675702595
233,mwinilunga,-11.7358,24.4293,17.6,96,79,1.75,ZM,1675702596
234,hithadhoo,-0.6,73.0833,27.52,69,47,4.97,MV,1675702596
235,leh,34.1667,77.5833,-12.74,88,73,1.33,IN,1675702596
236,torbay,47.6666,-52.7314,5.22,94,100,6.69,CA,1675702597
237,sovetskiy,61.3614,63.5842,-24.76,100,87,1.87,RU,1675702597
238,meulaboh,4.1363,96.1285,23.5,92,100,3.11,ID,1675702336
239,athens,37.9795,23.7162,4.62,76,75,3.09,GR,1675702598
240,broken hill,-31.95,141.4333,22.74,32,12,4.46,AU,1675702598
241,suntar,62.1444,117.6319,-40.63,100,99,1.16,RU,1675702599
242,omsukchan,62.5333,155.8,-38.55,100,92,1.99,RU,1675702599
243,dunedin,-45.8742,170.5036,15.45,87,41,2.24,NZ,1675702600
244,kachug,53.9606,105.8817,-16.14,97,100,1.62,RU,1675702600
245,kuryk,43.2,51.65,6.57,62,85,6.14,KZ,1675702568
246,deputatskiy,69.3,139.9,-32.17,97,100,1.72,RU,1675702601
247,iwanai,42.9744,140.5089,-4.85,78,100,2.16,JP,1675702601
248,santa isabel,-23.3156,-46.2214,28.61,75,58,3.39,BR,1675702412
249,omboue,-1.5746,9.2618,27.38,75,93,3.21,GA,1675702602
250,cochrane,51.1834,-114.4687,-3.54,73,0,3.09,CA,1675702347
251,tautira,-17.7333,-149.15,26.75,77,29,7.43,PF,1675702602
252,princeton,25.5384,-80.4089,27.22,74,20,4.12,US,1675702518
253,lanivtsi,49.8633,26.0908,-6.36,90,94,2.44,UA,1675702603
254,kaitangata,-46.2817,169.8464,11.28,85,3,2.6,NZ,1675702603
255,tessalit,20.1986,1.0114,31.36,9,21,3.08,ML,1675702305
256,oriximina,-1.7656,-55.8661,30.33,58,66,1.42,BR,1675702315
257,nouadhibou,20.931,-17.0347,20.99,46,0,8.23,MR,1675702322
258,sao joao da barra,-21.6403,-41.0511,32.05,79,68,4.53,BR,1675702604
259,coahuayana,18.7333,-103.6833,29.68,39,2,2.27,MX,1675702604
260,khandyga,62.6667,135.6,-38.7,100,100,0.22,RU,1675702605
261,xiongyue,40.1774,122.1228,-2.73,49,94,2.98,CN,1675702605
262,gejiu,23.306,103.1635,7.99,82,1,1.71,CN,1675702606
263,cape coast,5.1053,-1.2466,27.88,79,64,7.54,GH,1675702606
264,warrington,53.3925,-2.5802,7.15,73,0,2.06,GB,1675702606
265,semey,50.4111,80.2275,-13.98,96,58,2.33,KZ,1675702607
266,richards bay,-28.783,32.0377,24.27,85,8,1.76,ZA,1675702483
267,codrington,-38.2667,141.9667,13.56,88,7,2.35,AU,1675702607
268,hopewell,37.3043,-77.2872,13.91,50,10,6.01,US,1675702608
269,cidreira,-30.1811,-50.2056,26.28,62,23,4.82,BR,1675702372
270,guerrero negro,27.9769,-114.0611,15.56,64,74,10.91,MX,1675702609
271,skjervoy,70.0311,20.9714,9.0,78,100,9.27,NO,1675702609
272,dudinka,69.4058,86.1778,-22.59,99,99,2.71,RU,1675702609
273,manga,11.6636,-1.0731,35.18,9,100,4.66,BF,1675702610
274,sainte-marie,-20.8968,55.5496,27.09,84,97,7.2,RE,1675702610
275,tual,-5.6667,132.75,27.04,80,100,5.31,ID,1675702610
276,goderich,43.7501,-81.7165,-1.72,80,85,3.09,CA,1675702311
277,olafsvik,64.8945,-23.7142,0.34,68,100,17.6,IS,1675702611
278,port shepstone,-30.7414,30.455,25.04,81,7,6.84,ZA,1675702611
279,mana,5.6592,-53.7767,26.82,78,51,5.01,GF,1675702612
280,antalaha,-14.9003,50.2788,24.5,90,100,2.48,MG,1675702612
281,romilly-sur-seine,48.5108,3.7263,7.21,67,7,3.45,FR,1675702613
282,the valley,18.217,-63.0578,27.68,69,20,9.26,AI,1675702613
283,aykhal,66.0,111.5,-36.77,100,93,1.65,RU,1675702615
284,bheramara,24.0232,88.9925,19.22,36,0,1.69,BD,1675702615
285,katsuura,35.1333,140.3,10.94,60,100,1.33,JP,1675702617
286,coolum beach,-26.5333,153.1,24.5,79,37,3.48,AU,1675702617
287,mount gambier,-37.8333,140.7667,12.09,93,12,2.19,AU,1675702618
288,athabasca,54.7169,-113.2854,-6.77,85,86,4.53,CA,1675702618
289,takoradi,4.8845,-1.7554,28.44,75,95,6.83,GH,1675702326
290,sao raimundo nonato,-9.0153,-42.6994,32.07,41,100,1.7,BR,1675702348
291,samagaltay,50.6022,95.0047,-22.84,98,63,0.62,RU,1675702620
292,jaguarari,-10.2639,-40.1958,32.18,34,81,4.28,BR,1675702620
293,cabinda,-5.55,12.2,29.08,74,20,4.12,AO,1675702434
294,luancheng,37.8792,114.6517,-3.91,60,90,1.49,CN,1675702621
295,balabac,7.9868,117.0645,26.51,82,54,3.93,PH,1675702621
296,sao miguel do araguaia,-13.275,-50.1628,31.0,58,52,0.95,BR,1675702622
297,ahipara,-35.1667,173.1667,17.16,90,17,3.13,NZ,1675702623
298,amaigbo,5.7892,7.8383,34.74,33,63,1.39,NG,1675702623
299,bima,-8.4667,118.7167,24.45,94,99,1.54,ID,1675702624
300,tagusao,9.1924,117.8141,25.69,85,49,2.2,PH,1675702626
301,ovalle,-30.5983,-71.2003,29.76,38,0,3.93,CL,1675702626
302,kjollefjord,70.9457,27.3465,1.9,93,75,15.43,NO,1675702627
303,kiruna,67.8557,20.2251,-0.49,86,0,6.69,SE,1675702629
304,eyl,7.9803,49.8164,24.56,70,77,7.97,SO,1675702630
305,japura,-0.3167,102.35,24.12,88,98,1.62,ID,1675702630
306,kailua,21.4022,-157.7394,23.99,86,75,4.12,US,1675702631
307,grand-lahou,5.1367,-5.0242,27.89,74,79,5.22,CI,1675702632
308,ust-nera,64.5667,143.2,-39.29,100,100,0.64,RU,1675702632
309,muros,42.7762,-9.0603,16.16,44,0,4.54,ES,1675702633
310,letterkenny,54.95,-7.7333,9.94,76,100,4.09,IE,1675702634
311,mahebourg,-20.4081,57.7,27.16,78,75,3.6,MU,1675702515
312,grand gaube,-20.0064,57.6608,27.22,81,97,1.79,MU,1675702514
313,chicama,-7.8447,-79.1469,23.3,64,77,3.14,PE,1675702637
314,petropavlovsk-kamchatskiy,53.0452,158.6483,-15.67,78,40,4.0,RU,1675702638
315,kununurra,-15.7667,128.7333,22.99,88,13,0.0,AU,1675702638
316,san ramon,37.7799,-121.978,10.06,89,0,0.65,US,1675702585
317,selcuk,37.9514,27.3685,6.68,71,100,8.14,TR,1675702640
318,vanavara,60.34,102.2797,-22.28,100,93,1.5,RU,1675702641
319,san rafael del sur,11.8485,-86.4384,29.54,41,0,8.43,NI,1675702642
320,moranbah,-22.0016,148.0466,23.62,94,86,5.12,AU,1675702643
321,torquay,50.4638,-3.5143,8.25,84,16,1.34,GB,1675702643
322,pierre,44.3683,-100.351,2.8,96,100,6.33,US,1675702874
323,kungurtug,50.5994,97.5228,-24.13,100,83,1.0,RU,1675702645
324,vila franca do campo,37.7167,-25.4333,14.23,96,100,2.82,PT,1675702646
325,santiago del estero,-27.7951,-64.2615,36.57,21,0,3.87,AR,1675702646
326,druzhnaya gorka,59.2761,30.1425,-3.13,90,100,3.45,RU,1675702647
327,hami,42.8,93.45,0.76,41,98,2.29,CN,1675702397
328,santa cruz,-17.8,-63.1667,30.03,66,75,7.2,BO,1675702447
329,westport,41.1415,-73.3579,11.06,50,0,8.23,US,1675702631
330,flers,48.7372,-0.5747,6.14,74,2,2.71,FR,1675702648
331,derzhavinsk,51.1,66.3167,-14.54,97,93,3.46,KZ,1675702648
332,spiridonovka,53.0925,50.6462,-16.26,100,79,1.49,RU,1675702649
333,morros,-9.4467,-46.3003,30.38,49,40,0.23,BR,1675702649
334,vrangel,42.7297,133.0839,-6.82,62,35,2.92,RU,1675702649
335,san quintin,30.4833,-115.95,13.71,62,43,8.98,MX,1675702650
336,winnipeg,49.8844,-97.147,-2.19,84,100,10.29,CA,1675702537
337,nome,64.5011,-165.4064,-12.96,72,0,5.66,US,1675702373
338,hunterville,-39.9333,175.5667,13.64,98,7,1.92,NZ,1675702650
339,fenoarivo,-18.933,47.4354,20.04,83,75,4.63,MG,1675702651
340,saint-joseph,-21.3667,55.6167,26.21,82,82,5.26,RE,1675702651
341,warrnambool,-38.3833,142.4833,14.09,86,27,2.13,AU,1675702649
342,kyren,51.6828,102.1408,-16.84,88,11,0.82,RU,1675702652
343,lao cai,22.4833,103.95,19.24,94,55,0.42,VN,1675702653
344,boa vista,2.8197,-60.6733,27.99,65,75,5.14,BR,1675702653
345,sao jose da coroa grande,-8.8978,-35.1478,27.6,69,96,5.46,BR,1675702653
346,fukue,32.6881,128.8419,11.06,93,100,8.07,JP,1675702654
347,cooma,-36.2333,149.1333,14.81,87,97,0.55,AU,1675702654
348,yar-sale,66.8333,70.8333,-27.77,100,100,2.03,RU,1675702655
349,ladario,-19.0047,-57.6017,30.05,88,100,3.09,BR,1675702655
350,srednekolymsk,67.45,153.6833,-38.14,100,97,2.63,RU,1675702656
351,kahului,20.8947,-156.47,23.8,92,22,3.13,US,1675702894
352,olinda,-8.0089,-34.8553,23.85,83,75,1.03,BR,1675702657
353,birao,10.2849,22.7882,29.93,10,13,2.59,CF,1675702657
354,melfi,40.9965,15.6514,-0.84,67,100,4.31,IT,1675702658
355,gushikawa,26.3544,127.8686,20.57,94,75,0.0,JP,1675702658
356,vila velha,-20.3297,-40.2925,31.97,72,0,7.72,BR,1675702440
357,iranshahr,27.2025,60.6848,20.19,32,0,0.0,IR,1675702659
358,wanning,18.8003,110.3967,22.1,92,22,1.0,CN,1675702660
359,iberia,29.9502,-91.7507,20.03,63,0,2.57,US,1675702661
360,alim,9.5649,122.4876,25.83,81,84,2.74,PH,1675702661
361,jiancheng,30.391,104.5491,13.36,61,98,1.78,CN,1675702662
362,rawson,-43.3002,-65.1023,26.65,35,1,9.15,AR,1675702662
363,fianarantsoa,-21.4333,47.0833,17.42,98,100,3.03,MG,1675702476
364,north bend,43.4065,-124.2243,5.95,93,75,3.6,US,1675702662
365,fonte boa,-2.4959,-66.2662,25.87,84,98,1.2,BR,1675702663
366,aksarayskiy,46.7924,48.0119,-3.9,84,100,6.44,RU,1675702663
367,winnemucca,40.973,-117.7357,0.51,72,35,3.09,US,1675702664
368,shelburne,44.0787,-80.2041,-4.87,90,88,2.43,CA,1675702664
369,krasnaya polyana,56.242,51.1442,-13.13,99,99,1.47,RU,1675702666
370,tucurui,-3.7661,-49.6725,30.87,60,87,1.25,BR,1675702666
371,shiraz,29.6036,52.5388,10.69,46,75,2.06,IR,1675702667
372,vienne,48.2085,16.3721,0.33,71,0,3.09,AT,1675702389
373,leningradskiy,69.3833,178.4167,-34.11,99,100,3.21,RU,1675702437
374,evensk,61.95,159.2333,-29.0,76,20,4.61,RU,1675702668
375,grand-santi,4.25,-54.3833,26.57,89,71,2.01,GF,1675702668
376,shilka,51.85,116.0333,-24.52,99,52,1.96,RU,1675702668
377,kinango,-4.1372,39.3153,26.06,81,51,3.57,KE,1675702669
378,tuktoyaktuk,69.4541,-133.0374,-42.0,66,0,1.03,CA,1675702669
379,yerofey pavlovich,53.9667,121.9667,-29.79,94,24,1.78,RU,1675702670
380,cukai,4.25,103.4167,22.99,94,100,2.21,MY,1675702670
381,karratha,-20.7377,116.8463,30.41,63,0,3.93,AU,1675702670
382,ostrovnoy,68.0531,39.5131,-7.18,95,88,3.37,RU,1675702426
383,qarchi gak,37.04,66.7889,10.26,61,63,5.67,AF,1675702671
384,andros,37.8333,24.9333,7.31,62,100,11.62,GR,1675702672
385,awassa,7.05,38.4667,21.42,33,94,4.24,ET,1675702672
386,bonthe,7.5264,-12.505,28.94,56,96,5.63,SL,1675702672
387,bondoukou,8.0333,-2.8,35.87,20,76,1.34,CI,1675702673
388,kieta,-6.2167,155.6333,24.69,91,100,2.94,PG,1675702673
389,plattsburgh,44.6995,-73.4529,-0.91,66,100,7.72,US,1675702601
390,vasylivka,47.4369,35.2742,-2.97,75,100,7.38,UA,1675702674
391,sampit,-2.5333,112.95,24.45,90,100,0.99,ID,1675702674
392,qiongshan,20.0058,110.3542,21.99,94,20,3.0,CN,1675702674
393,baturaden,-7.3,109.2167,18.46,95,100,1.19,ID,1675702675
394,makat,47.6469,53.3463,-3.75,82,100,4.61,KZ,1675702675
395,yeniseysk,58.4497,92.1703,-23.3,100,100,0.61,RU,1675702417
396,manakara,-22.1333,48.0167,23.2,92,100,3.17,MG,1675702676
397,nemuro,43.3236,145.575,-4.36,80,77,0.78,JP,1675702676
398,veraval,20.9,70.3667,21.5,74,0,5.97,IN,1675702677
399,kawalu,-7.3817,108.2082,22.77,88,100,0.69,ID,1675702677
400,sao filipe,14.8961,-24.4956,21.14,60,41,7.02,CV,1675702677
401,vestmanna,62.1564,-7.1664,7.51,93,100,9.77,FO,1675702678
402,hays,30.0502,-98.0336,19.02,84,100,3.13,US,1675702678
403,pangnirtung,66.1451,-65.7125,-35.0,68,20,0.0,CA,1675702678
404,villablino,42.9393,-6.3194,10.42,83,1,1.92,ES,1675702679
405,kawambwa,-9.7915,29.0791,17.77,92,95,1.26,ZM,1675702679
406,phalaborwa,-23.943,31.1411,27.87,51,20,7.53,ZA,1675702680
407,bambari,5.768,20.6757,32.7,11,48,0.55,CF,1675702680
408,bengkulu,-3.8004,102.2655,24.36,87,100,2.89,ID,1675702681
409,baker city,44.7749,-117.8344,2.0,74,0,2.06,US,1675702681
410,provideniya,64.3833,-173.3,-22.86,98,79,1.17,RU,1675702435
411,kavieng,-2.5744,150.7967,27.22,79,100,4.67,PG,1675702681
412,chimbote,-9.0853,-78.5783,24.25,72,81,3.23,PE,1675702682
413,simbahan,6.3032,120.5836,27.03,75,100,0.93,PH,1675702682
414,sao paulo de olivenca,-3.3783,-68.8725,27.39,77,99,1.66,BR,1675702683
415,husavik,66.0449,-17.3389,0.08,64,3,6.34,IS,1675702647
416,shitanjing,39.2342,106.3439,-2.48,35,3,0.9,CN,1675702684
417,porto novo,6.4965,2.6036,29.9,69,100,5.02,BJ,1675702684
418,palmer,42.1584,-72.3287,10.29,52,100,2.24,US,1675702686
419,indramayu,-6.3264,108.32,26.69,81,99,4.52,ID,1675702687
420,alihe,50.5667,123.7167,-26.15,98,20,1.63,CN,1675702688
421,calbuco,-41.768,-73.1273,14.91,67,3,5.57,CL,1675702688
422,lobito,-12.3481,13.5456,26.42,73,84,3.12,AO,1675702688
423,panaba,21.2833,-88.2667,26.56,59,20,4.43,MX,1675702689
424,paranavai,-23.0731,-52.4653,28.96,52,78,2.57,BR,1675702606
425,viedma,-40.8135,-62.9967,26.78,27,0,8.59,AR,1675702690
426,garden city,42.3256,-83.331,0.87,72,100,3.09,US,1675702656
427,sayyan,15.1718,44.3244,16.12,38,100,0.9,YE,1675702690
428,simpang,-1.2667,104.0833,24.59,92,80,1.34,ID,1675702691
429,taperoa,-7.2075,-36.8267,31.53,36,48,5.32,BR,1675702691
430,ramhormoz,31.28,49.6035,16.33,52,100,2.21,IR,1675702691
431,byron bay,-28.65,153.6167,20.52,79,100,1.65,AU,1675702692
432,beloha,-25.1667,45.05,23.74,83,100,6.26,MG,1675702692
433,steinbach,50.1667,8.5667,5.19,60,20,6.17,DE,1675702693
434,maasin,10.1336,124.8447,23.87,94,72,3.79,PH,1675702693
435,pangai,-19.8,-174.35,26.62,76,93,5.42,TO,1675702693
436,uddevalla,58.3478,11.9424,2.26,95,4,3.49,SE,1675702694
437,medzev,48.7004,20.8937,-3.59,89,45,2.92,SK,1675702694
438,marolambo,-20.05,48.1167,20.52,99,100,0.44,MG,1675702695
439,parola,20.8833,75.1167,24.65,21,0,3.14,IN,1675702695
440,campos novos,-27.4017,-51.225,27.95,22,84,2.33,BR,1675702561
441,cockburn town,21.4612,-71.1419,26.98,65,40,6.69,TC,1675702526
442,acarau,-2.8856,-40.12,28.53,70,96,5.65,BR,1675702696
443,harper,4.375,-7.7169,28.35,69,81,4.09,LR,1675702696
444,bismarck,46.8083,-100.7837,3.78,81,100,6.17,US,1675702441
445,palana,59.1167,159.9667,-26.71,99,98,3.41,RU,1675702697
446,lingao,19.9103,109.6859,21.38,89,70,5.22,CN,1675702697
447,sai buri,6.7013,101.6168,24.04,87,98,1.69,TH,1675702698
448,cortes,41.9395,-1.4396,12.6,57,36,2.21,ES,1675702698
449,dryden,49.7833,-92.7503,-5.84,79,75,5.66,CA,1675702642
450,sangar,63.9242,127.4739,-46.43,100,76,0.55,RU,1675702699
451,port elizabeth,-33.918,25.5701,26.16,90,40,5.66,ZA,1675702699
452,mednogorsk,51.4128,57.595,-19.54,100,60,0.72,RU,1675702699
453,urumqi,43.801,87.6005,-9.47,93,40,1.0,CN,1675702421
454,pangody,65.85,74.4859,-28.29,100,100,0.83,RU,1675702636
455,tarauaca,-8.1614,-70.7656,30.16,56,86,1.78,BR,1675702701
456,komsomolskiy,40.4272,71.7189,5.4,87,100,2.06,UZ,1675702701
457,shelbyville,35.4834,-86.4603,14.43,61,0,2.06,US,1675702701
458,dasoguz,41.8363,59.9666,2.97,75,0,6.17,TM,1675702446
459,belmonte,-15.8631,-38.8828,29.82,62,0,5.02,BR,1675702702
460,tilichiki,60.4667,166.1,-31.96,94,14,3.95,RU,1675702702
461,beian,63.6559,9.5683,8.34,81,75,6.69,NO,1675702702
462,jaque,7.5175,-78.1703,28.7,68,51,2.78,PA,1675702703
463,caico,-6.4583,-37.0978,35.61,29,36,3.81,BR,1675702703
464,twentynine palms,34.1356,-116.0542,11.65,41,21,1.79,US,1675702460
465,tabou,4.423,-7.3528,28.01,71,85,4.24,CI,1675702704
466,la ronge,55.1001,-105.2842,-8.86,73,100,8.23,CA,1675702704
467,sistranda,63.7256,8.834,6.98,81,100,13.68,NO,1675702705
468,norman wells,65.282,-126.8329,-27.98,76,40,1.03,CA,1675702705
469,chase,50.8165,-119.6857,2.31,93,95,1.27,CA,1675702705
470,quzhou,28.9594,118.8686,11.31,99,100,0.58,CN,1675702706
471,dawson creek,55.7666,-120.2362,1.8,64,0,5.14,CA,1675702689
472,tornio,65.8481,24.1466,-1.99,92,100,4.62,FI,1675702708
473,singaraja,-8.112,115.0882,25.57,86,100,2.4,ID,1675702708
474,tiksi,71.6872,128.8694,-34.69,100,88,2.26,RU,1675702709
475,yomou,7.5603,-9.2653,35.07,24,82,1.42,GN,1675702709
476,nova olinda do norte,-3.8881,-59.0942,27.69,76,92,0.95,BR,1675702709
477,san patricio,28.017,-97.5169,23.84,62,7,8.04,US,1675702710
478,mehamn,71.0357,27.8492,1.97,93,75,15.43,NO,1675702710
479,dongsheng,39.8161,109.9776,-3.7,37,1,4.12,CN,1675702711
480,lagoa,39.05,-27.9833,13.56,72,89,13.24,PT,1675702472
481,severodvinsk,64.5635,39.8302,-8.94,96,97,2.54,RU,1675702712
482,sabha,27.0377,14.4283,14.08,43,52,3.35,LY,1675702712
483,arman,59.7,150.1667,-30.55,82,78,3.91,RU,1675702713
484,poso,-1.3959,120.7524,24.0,91,91,1.67,ID,1675702713
485,hirara,24.8,125.2833,21.18,82,100,6.88,JP,1675702713
486,pacific grove,36.6177,-121.9166,10.29,90,0,2.06,US,1675702714
487,sambava,-14.2667,50.1667,24.99,88,100,2.29,MG,1675702420
488,huarmey,-10.0681,-78.1522,23.25,79,95,3.11,PE,1675702714
489,hastings,50.8552,0.5729,7.85,19,7,2.77,GB,1675702715
490,bamako,12.65,-8.0,37.23,9,0,2.06,ML,1675702715
491,tura,25.5198,90.2201,15.57,42,0,1.25,IN,1675702715
492,cerro azul,21.2,-97.7333,23.43,63,0,2.56,MX,1675702716
493,little rock,34.7465,-92.2896,16.66,80,75,4.12,US,1675702527
494,makakilo city,21.3469,-158.0858,23.18,77,0,3.6,US,1675702370
495,kirakira,-10.4544,161.9205,26.53,86,100,4.8,SB,1675702717
496,valentin gomez farias,28.2167,-106.5833,17.38,17,84,4.01,MX,1675702717
497,jacareacanga,-6.2222,-57.7528,31.23,58,72,0.42,BR,1675702717
498,zhigansk,66.7697,123.3711,-47.97,100,71,0.29,RU,1675702718
499,rocha,-34.4833,-54.3333,30.82,33,65,6.0,UY,1675702478
500,roma,43.2128,-75.4557,3.31,81,100,3.6,US,1675702683
501,angoche,-16.2325,39.9086,24.39,93,100,1.48,MZ,1675702718
502,blagoyevo,63.3667,47.9167,-20.05,100,94,1.76,RU,1675702719
503,cayenne,4.9333,-52.3333,28.02,74,75,7.72,GF,1675702719
504,tecoanapa,16.5167,-98.75,27.82,59,0,3.11,MX,1675702720
505,ciudad bolivar,8.1222,-63.5497,29.71,48,96,3.15,VE,1675702720
506,altamont,42.2068,-121.7372,0.43,90,0,0.89,US,1675702721
507,horsham,51.064,-0.3272,9.47,55,0,3.09,GB,1675702721
508,malindi,-3.2175,40.1191,27.09,69,20,6.69,KE,1675702511
509,shingu,33.7333,135.9833,8.88,56,100,1.4,JP,1675702721
510,changli,39.7042,119.1506,-1.74,56,100,2.85,CN,1675702722
511,northam,51.0333,-4.2167,8.12,80,25,1.96,GB,1675702722
512,mount darwin,-16.7725,31.5838,20.79,88,57,1.07,ZW,1675702723
513,campechuela,20.2342,-77.2789,28.32,56,0,3.92,CU,1675702723
514,levice,48.2156,18.6071,-4.07,73,53,0.78,SK,1675702723
515,virden,39.5009,-89.7679,7.83,71,100,7.35,US,1675702724
516,sola,-13.8833,167.55,27.33,73,86,2.37,VU,1675702724
517,krasyukovskaya,47.5522,40.1088,0.4,80,75,8.0,RU,1675702725
518,puerto plata,19.7934,-70.6884,28.95,65,20,5.66,DO,1675702725
519,san rafael,-34.6177,-68.3301,32.91,16,0,4.27,AR,1675702725
520,pemangkat,1.1667,108.9667,25.65,85,100,0.38,ID,1675702726
521,mercedes,-34.6515,-59.4307,33.3,16,1,2.7,AR,1675702954
522,ourossogui,15.6064,-13.3211,35.0,17,0,1.03,SN,1675702726
523,lethem,3.3803,-59.7968,28.13,60,95,3.59,GY,1675702727
524,le port,-20.9373,55.2919,27.0,80,98,2.51,RE,1675702520
525,poltavka,54.3663,71.7632,-20.88,100,98,0.96,RU,1675702728
526,loreto,22.2667,-101.9667,19.07,19,0,3.14,MX,1675702696
527,quelimane,-17.8786,36.8883,26.1,78,16,2.73,MZ,1675702511
528,massaguet,12.4755,15.4365,30.57,12,99,4.06,TD,1675702731
529,henties bay,-22.116,14.2845,18.91,83,98,3.5,NA,1675702731
530,viru,-8.4167,-78.75,29.15,52,41,4.46,PE,1675702732
531,totskoye,52.5248,52.7623,-16.43,100,70,0.21,RU,1675702732
532,bilibino,68.0546,166.4372,-37.24,100,100,0.73,RU,1675702733
533,trairi,-3.2778,-39.2689,29.2,66,84,4.51,BR,1675702722
534,gondanglegi,-7.7479,112.0132,23.46,92,100,2.03,ID,1675702734
535,hofn,64.2539,-15.2082,3.01,75,75,6.17,IS,1675702734
536,high rock,26.6208,-78.2833,24.01,63,38,5.94,BS,1675702734
537,marana,32.4367,-111.2254,15.67,43,2,0.0,US,1675702604
538,bubaque,11.2833,-15.8333,24.74,64,14,8.24,GW,1675702735
539,pangkalanbuun,-2.6833,111.6167,23.87,95,99,1.1,ID,1675702735
540,pilar,-9.5972,-35.9567,27.96,70,91,5.18,BR,1675702736
541,sterling,39.0062,-77.4286,11.0,58,100,8.75,US,1675702652
542,sutysky,49.0425,28.4173,-4.76,80,100,4.73,UA,1675702642
543,saint-pierre,-21.3393,55.4781,26.82,69,0,4.63,RE,1675702737
544,solnechnyy,50.7214,136.6319,-22.65,96,76,1.38,RU,1675702737
545,santa maria,-29.6842,-53.8069,29.61,45,40,2.06,BR,1675702699
546,chulym,55.0997,80.9572,-10.97,97,100,1.59,RU,1675702738
547,halifax,44.6453,-63.5724,6.36,93,100,1.54,CA,1675702738
548,quatre cocos,-20.2078,57.7625,27.06,80,79,5.49,MU,1675702738
549,chernyshevskiy,63.0128,112.4714,-34.79,98,99,0.14,RU,1675702739
550,soe,-9.8607,124.284,19.03,95,100,1.32,ID,1675702739
551,hay river,60.8156,-115.7999,-28.01,76,20,1.03,CA,1675702740
552,punto fijo,11.6956,-70.1996,27.9,62,18,12.61,VE,1675702740
553,waipawa,-41.4122,175.5153,12.75,86,0,1.81,NZ,1675702654
554,umm lajj,25.0213,37.2685,20.07,47,77,4.91,SA,1675702741
555,mayumba,-3.432,10.6554,26.71,76,93,3.09,GA,1675702741
556,guiberoua,6.2392,-6.1727,33.3,35,92,2.13,CI,1675702742
557,langholm,55.151,-2.9989,6.34,93,100,4.98,GB,1675702742
558,ingham,42.6,-84.3833,0.65,78,100,0.0,US,1675702743
559,pontianak,-0.0333,109.3333,24.99,94,100,0.51,ID,1675702743
560,porto santo,33.072,-16.3415,16.21,55,75,9.26,PT,1675702744
561,buchanan,5.8808,-10.0467,28.95,69,58,4.68,LR,1675702744
562,shieli,44.1667,66.75,-0.83,85,81,2.46,KZ,1675702744
563,mingaora,34.7758,72.3625,7.0,74,2,2.6,PK,1675702745
